[
  {
    "id": 1,
    "code": "be",
    "name": "Belgium",
    "osmDlURL": "http://download.geofabrik.de/europe/belgium-latest.osm.pbf",
    "cities":
      [
        {
          "id": 2,
          "timezone": "Europe/Brussels",
          "code": "brussels",
          "name": "Brussels",
          "lat": 50.8503,
          "lng": 4.3517,
          "portBRRoutes": 0,
          "hostBRRoutes": "",
          "hasBRRoutes": false,
          "portBRTrips": 0,
          "hostBRTrips": "",
          "hasBRTrips": false,
          "portOTP": 0,
          "hostOTP": "",
          "hasOTP": true,
          "portSentimentAnalysis": 0,
          "hostSentimentAnalysis": "",
          "hasSentimentAnalysis": false,
          "portTrafficJam": 0,
          "hostTrafficJam": "",
          "hasTrafficJam": false,
          "enabled": true,
          "gtfsVersion": "170912",
          "osmVersion": "170912",
          "mesosDNSBRRoutes": "",
          "mesosDNSBRTrips": "",  
          "mesosDNSOTP": "",
          "gtfsDlURL": [
          	"https://transitfeeds.com/p/societe-des-transports-intercommunaux-de-bruxelles/527/latest/download"
          ],
          "latMin": 50.8503,
          "lngMin": 4.3517,
          "latMax": 50.8503,
          "lngMax": 4.3517
        }
      ]
  },
  {
    "id": 3,
    "code": "es",
    "name": "Spain",
    "osmDlURL": "http://download.geofabrik.de/europe/spain-latest.osm.pbf",
    "cities":
      [
        {
          "id": 4,
          "timezone": "Europe/Madrid",
          "code": "madrid",
          "name": "Madrid",
          "lat": 40.4168,
          "lng": 3.7038,
          "portBRRoutes": 0,
          "hostBRRoutes": "",
          "hasBRRoutes": false,
          "portBRTrips": 0,
          "hostBRTrips": "",
          "hasBRTrips": false,
          "portOTP": 0,
          "hostOTP": "0",
          "hasOTP": true,
          "portSentimentAnalysis": 0,
          "hostSentimentAnalysis": "",
          "hasSentimentAnalysis": false,
          "portTrafficJam": 0,
          "hostTrafficJam": "",
          "hasTrafficJam": false,
          "enabled": true,
          "gtfsVersion": "170831",
          "osmVersion": "170912",
          "mesosDNSBRRoutes": "",
          "mesosDNSBRTrips": "",  
          "mesosDNSOTP": "",
          "gtfsDlURL": [
          	"https://transitfeeds.com/p/emt-madrid/212/latest/download",
          	"https://transitfeeds.com/p/consorcio-regional-de-transportes-de-madrid/742/latest/download",
          	"https://transitfeeds.com/p/consorcio-regional-de-transportes-de-madrid/743/latest/download"
          ],
          "latMin": 40.4168,
          "lngMin": 3.7038,
          "latMax": 40.4168,
          "lngMax": 3.7038   
        },
        {
          "id": 5,
          "timezone": "Europe/Madrid",
          "code": "valencia",
          "name": "Valencia",
          "lat": 39.4699,
          "lng": 0.3763,
          "portBRRoutes": 0,
          "hostBRRoutes": "",
          "hasBRRoutes": false,
          "portBRTrips": 0,
          "hostBRTrips": "",
          "hasBRTrips": false,
          "portOTP": 0,
          "hostOTP": "",
          "hasOTP": true,
          "portSentimentAnalysis": 0,
          "hostSentimentAnalysis": "",
          "hasSentimentAnalysis": false,
          "portTrafficJam": 0,
          "hostTrafficJam": "",
          "hasTrafficJam": false,
          "enabled": true,
          "gtfsVersion": "170905",
          "osmVersion": "170912",
          "mesosDNSBRRoutes": "",
          "mesosDNSBRTrips": "",  
          "mesosDNSOTP": "",
          "gtfsDlURL": [
          	"https://transitfeeds.com/p/emt-valencia/719/latest/download"
          ],
          "latMin": 40.4168,
          "lngMin": 3.7038,
          "latMax": 40.4168,
          "lngMax": 3.7038   
        }
      ]
  },
  {
    "id": 6,
    "code": "br",
    "name": "Brazil",
    "osmDlURL": "http://download.geofabrik.de/south-america/brazil-latest.osm.pbf",
    "cities":
      [
        {
          "id": 7,
          "timezone": "America/Sao_Paulo",
          "code": "belo_horizonte",
          "name": "Belo Horizonte",
          "lat": -19.9245,
          "lng": -43.9352,
          "portBRRoutes": 0,
          "hostBRRoutes": "",
          "hasBRRoutes": false,
          "portBRTrips": 0,
          "hostBRTrips": "",
          "hasBRTrips": false,
          "portOTP": 0,
          "hostOTP": "",
          "hasOTP": false,
          "portSentimentAnalysis": 0,
          "hostSentimentAnalysis": "",
          "hasSentimentAnalysis": false,
          "portTrafficJam": 0,
          "hostTrafficJam": "",
          "hasTrafficJam": false,
          "enabled": true,
          "gtfsVersion": "160912",
          "osmVersion": "170912",
          "mesosDNSBRRoutes": "",
          "mesosDNSBRTrips": "",  
          "mesosDNSOTP": "",
          "gtfsDlURL": [],
          "latMin": -19.9245,
          "lngMin": -43.9352,
          "latMax": -19.9245,
          "lngMax": -43.9352   
        },
        {
          "id": 8,
          "timezone": "America/Sao_Paulo",
          "code": "campina_grande",
          "name": "Campina-Grande",
          "lat": -7.2291,
          "lng": -35.8808,
          "portBRRoutes": 0,
          "hostBRRoutes": "",
          "hasBRRoutes": false,
          "portBRTrips": 0,
          "hostBRTrips": "",
          "hasBRTrips": false,
          "portOTP": 0,
          "hostOTP": "",
          "hasOTP": false,
          "portSentimentAnalysis": 0,
          "hostSentimentAnalysis": "",
          "hasSentimentAnalysis": false,
          "portTrafficJam": 0,
          "hostTrafficJam": "",
          "hasTrafficJam": false,
          "enabled": true,
          "gtfsVersion": "160912",
          "osmVersion": "170912",
          "mesosDNSBRRoutes": "",
          "mesosDNSBRTrips": "",
          "mesosDNSOTP": "",
          "gtfsDlURL": [],
          "latMin": -7.2291,
          "lngMin": -35.8808,
          "latMax": -7.2291,
          "lngMax": -35.8808     
        },
        {
          "id": 9,
          "timezone": "America/Sao_Paulo",
          "code": "curitiba",
          "name": "Curitiba",
          "lat": -25.4244,
          "lng": -49.2654,
          "portBRRoutes": 0,
          "hostBRRoutes": "",
          "hasBRRoutes": false,
          "portBRTrips": 0,
          "hostBRTrips": "",
          "hasBRTrips": true,
          "portOTP": 0,
          "hostOTP": "",
          "hasOTP": false,
          "portSentimentAnalysis": 0,
          "hostSentimentAnalysis": "http://festival.ctweb.inweb.org.br/results?type=SENTIMENT",
          "hasSentimentAnalysis": true,
          "portTrafficJam": 0,
          "hostTrafficJam": "http://festival.ctweb.inweb.org.br/results?type=TRAFFIC_JAM",
          "hasTrafficJam": true,
          "enabled": true,
          "gtfsVersion": "160912",
          "osmVersion": "170912",
          "mesosDNSBRRoutes": "",
          "mesosDNSBRTrips": "",  
          "mesosDNSOTP": "",
          "gtfsDlURL": [],
          "latMin": -25.4244,
          "lngMin": -49.2654,
          "latMax": -25.4244,
          "lngMax": -49.2654    
        },
        {
          "id": 10,
          "timezone": "America/Sao_Paulo",
          "code": "fortaleza",
          "name": "Fortaleza",
          "lat": -3.7319,
          "lng": -38.5267,
          "portBRRoutes": 0,
          "hostBRRoutes": "",
          "hasBRRoutes": false,
          "portBRTrips": 0,
          "hostBRTrips": "",
          "hasBRTrips": false,
          "portOTP": 0,
          "hostOTP": "",
          "hasOTP": false,
          "portSentimentAnalysis": 0,
          "hostSentimentAnalysis": "",
          "hasSentimentAnalysis": false,
          "portTrafficJam": 0,
          "hostTrafficJam": "",
          "hasTrafficJam": false,
          "enabled": true,
          "gtfsVersion": "160912",
          "osmVersion": "170912",
          "mesosDNSBRRoutes": "",
          "mesosDNSBRTrips": "",  
          "mesosDNSOTP": "",
          "gtfsDlURL": [],
          "latMin": -3.7319,
          "lngMin": -38.5267,
          "latMax": -3.7319,
          "lngMax": -38.5267   
        },
        {
          "id": 11,
          "timezone": "America/Sao_Paulo",
          "code": "porto_alegre",
          "name": "Porto Alegre",
          "lat": -30.0346,
          "lng": -51.2177,
          "portBRRoutes": 0,
          "hostBRRoutes": "",
          "hasBRRoutes": false,
          "portBRTrips": 0,
          "hostBRTrips": "",
          "hasBRTrips": false,
          "portOTP": 0,
          "hostOTP": "",
          "hasOTP": false,
          "portSentimentAnalysis": 0,
          "hostSentimentAnalysis": "",
          "hasSentimentAnalysis": false,
          "portTrafficJam": 0,
          "hostTrafficJam": "",
          "hasTrafficJam": false,
          "enabled": true,
          "gtfsVersion": "160912",
          "osmVersion": "170912",
          "mesosDNSBRRoutes": "",
          "mesosDNSBRTrips": "",  
          "mesosDNSOTP": "",
          "gtfsDlURL": [],
          "latMin": -30.0346,
          "lngMin": -51.2177,
          "latMax": -30.0346,
          "lngMax": -51.2177   
        },
        {
          "id": 12,
          "timezone": "America/Sao_Paulo",
          "code": "rio_de_janeiro",
          "name": "Rio de Janeiro",
          "lat": -22.9068,
          "lng": -43.1729,
          "portBRRoutes": 0,
          "hostBRRoutes": "",
          "hasBRRoutes": false,
          "portBRTrips": 0,
          "hostBRTrips": "",
          "hasBRTrips": false,
          "portOTP": 0,
          "hostOTP": "",
          "hasOTP": false,
          "portSentimentAnalysis": 0,
          "hostSentimentAnalysis": "",
          "hasSentimentAnalysis": false,
          "portTrafficJam": 0,
          "hostTrafficJam": "",
          "hasTrafficJam": false,
          "enabled": true,
          "gtfsVersion": "160912",
          "osmVersion": "170912",
          "mesosDNSBRRoutes": "",
          "mesosDNSBRTrips": "",  
          "mesosDNSOTP": "",
          "gtfsDlURL": [],
          "latMin": -22.9068,
          "lngMin": -43.1729,
          "latMax": -22.9068,
          "lngMax": -43.1729   
        }
      ]
  },
   {
    "id": 13,
    "code": "fi",
    "name": "Finland",
    "cities":
      [
        {
          "id": 14,
          "timezone": "Europe/Helsinki",
          "code": "helsinki",
          "name": "Helsinki",
          "lat": 60.1699,
          "lng": 24.9384,
          "portBRRoutes": 0,
          "hostBRRoutes": "",
          "hasBRRoutes": false,
          "portBRTrips": 0,
          "hostBRTrips": "",
          "hasBRTrips": false,
          "portOTP": 0,
          "hostOTP": "",
          "hasOTP": true,
          "portSentimentAnalysis": 0,
          "hostSentimentAnalysis": "",
          "hasSentimentAnalysis": false,
          "portTrafficJam": 0,
          "hostTrafficJam": "",
          "hasTrafficJam": false,
          "enabled": true,
          "gtfsVersion": "170906",
          "osmVersion": "170912",
          "mesosDNSBRRoutes": "",
          "mesosDNSBRTrips": "",  
          "mesosDNSOTP": "",
          "gtfsDlURL": [
          	"https://transitfeeds.com/p/helsinki-regional-transport/735/latest/download"
          ],
          "latMin": 60.1699,
          "lngMin": 24.9384,
          "latMax": 60.1699,
          "lngMax": 24.9384   
        }
      ]
  }
]
