[
  {
    "id": 1,
    "code": "be",
    "name": "Belgium",
    "cities":
      [
        {
          "id": 2,
          "code": "brussels",
          "name": "Brussels",
          "lat": 50.8503,
          "lng": 4.3517,
          "portBRRoute": 123,
          "hostBRRoute": "localhost",
          "portBRTrips": 31245,
          "hostBRTrips": "http://biogpu.i3m.upv.es"
        }
      ]
  },
  {
    "id": 3,
    "code": "es",
    "name": "Spain",
    "cities":
      [
        {
          "id": 4,
          "code": "madrid",
          "name": "Madrid",
          "lat": 40.4168,
          "lng": 3.7038,
          "portBRRoute": 123,
          "hostBRRoute": "localhost",
          "portBRTrips": 123,
          "hostBRTrips": "localhost"
        },
        {
          "id": 5,
          "code": "valencia",
          "name": "Valencia",
          "lat": 39.4699,
          "lng": 0.3763,
          "portBRRoute": 123,
          "hostBRRoute": "localhost",
          "portBRTrips": 123,
          "hostBRTrips": "localhost"
        }
      ]
  },
  {
    "id": 6,
    "code": "br",
    "name": "Brazil",
    "cities":
      [
        {
          "id": 7,
          "code": "belo_horizonte",
          "name": "Belo Horizonte",
          "lat": -19.9245,
          "lng": -43.9352,
          "portBRRoute": 123,
          "hostBRRoute": "localhost",
          "portBRTrips": 123,
          "hostBRTrips": "localhost"
        },
        {
          "id": 8,
          "code": "campina_grande",
          "name": "Campina-Grande",
          "lat": -7.2291,
          "lng": -35.8808,
          "portBRRoute": 123,
          "hostBRRoute": "localhost",
          "portBRTrips": 123,
          "hostBRTrips": "localhost"
        },
        {
          "id": 9,
          "code": "curitiba",
          "name": "Curitiba",
          "lat": -25.4244,
          "lng": -49.2654,
          "portBRRoute": 123,
          "hostBRRoute": "localhost",
          "portBRTrips": 123,
          "hostBRTrips": "localhost"
        },
        {
          "id": 10,
          "code": "fortaleza",
          "name": "Fortaleza",
          "lat": -3.7319,
          "lng": -38.5267,
          "portBRRoute": 123,
          "hostBRRoute": "localhost",
          "portBRTrips": 123,
          "hostBRTrips": "localhost"
        },
        {
          "id": 11,
          "code": "porto_alegre",
          "name": "Porto Alegre",
          "lat": -30.0346,
          "lng": -51.2177,
          "portBRRoute": 123,
          "hostBRRoute": "localhost",
          "portBRTrips": 123,
          "hostBRTrips": "localhost"
        },
        {
          "id": 12,
          "code": "rio_de_janeiro",
          "name": "Rio de Janeiro",
          "lat": -22.9068,
          "lng": -43.1729,
          "portBRRoute": 123,
          "hostBRRoute": "localhost",
          "portBRTrips": 123,
          "hostBRTrips": "localhost"
        }
      ]
  }
]
